[
  {
    "name": "Vail",
    "slug": "vail",
    "lat": 39.64,
    "lng": -106.37,
    "elevationSummit": 11570,
    "elevationBase": 8120,
    "region": "i70-corridor",
    "passType": "epic",
    "totalLifts": 31,
    "totalTrails": 195,
    "terrainAcres": 5317,
    "nearestAirport": "EGE",
    "website": "https://www.vail.com"
  },
  {
    "name": "Beaver Creek",
    "slug": "beaver-creek",
    "lat": 39.60,
    "lng": -106.52,
    "elevationSummit": 11440,
    "elevationBase": 8100,
    "region": "i70-corridor",
    "passType": "epic",
    "totalLifts": 25,
    "totalTrails": 150,
    "terrainAcres": 1832,
    "nearestAirport": "EGE",
    "website": "https://www.beavercreek.com"
  },
  {
    "name": "Breckenridge",
    "slug": "breckenridge",
    "lat": 39.48,
    "lng": -106.07,
    "elevationSummit": 12998,
    "elevationBase": 9600,
    "region": "i70-corridor",
    "passType": "epic",
    "totalLifts": 35,
    "totalTrails": 187,
    "terrainAcres": 2908,
    "nearestAirport": "DEN",
    "website": "https://www.breckenridge.com"
  },
  {
    "name": "Keystone",
    "slug": "keystone",
    "lat": 39.61,
    "lng": -105.94,
    "elevationSummit": 12408,
    "elevationBase": 9280,
    "region": "i70-corridor",
    "passType": "epic",
    "totalLifts": 20,
    "totalTrails": 128,
    "terrainAcres": 3148,
    "nearestAirport": "DEN",
    "website": "https://www.keystoneresort.com"
  },
  {
    "name": "Copper Mountain",
    "slug": "copper-mountain",
    "lat": 39.50,
    "lng": -106.15,
    "elevationSummit": 12313,
    "elevationBase": 9712,
    "region": "i70-corridor",
    "passType": "ikon",
    "totalLifts": 24,
    "totalTrails": 140,
    "terrainAcres": 2490,
    "nearestAirport": "DEN",
    "website": "https://www.coppercolorado.com"
  },
  {
    "name": "Arapahoe Basin",
    "slug": "arapahoe-basin",
    "lat": 39.64,
    "lng": -105.87,
    "elevationSummit": 13050,
    "elevationBase": 10780,
    "region": "i70-corridor",
    "passType": "ikon",
    "totalLifts": 9,
    "totalTrails": 147,
    "terrainAcres": 1428,
    "nearestAirport": "DEN",
    "website": "https://www.arapahoebasin.com"
  },
  {
    "name": "Loveland",
    "slug": "loveland",
    "lat": 39.68,
    "lng": -105.90,
    "elevationSummit": 13010,
    "elevationBase": 10800,
    "region": "i70-corridor",
    "passType": "independent",
    "totalLifts": 10,
    "totalTrails": 94,
    "terrainAcres": 1800,
    "nearestAirport": "DEN",
    "website": "https://skiloveland.com"
  },
  {
    "name": "Winter Park",
    "slug": "winter-park",
    "lat": 39.87,
    "lng": -105.76,
    "elevationSummit": 12060,
    "elevationBase": 9000,
    "region": "front-range",
    "passType": "ikon",
    "totalLifts": 25,
    "totalTrails": 166,
    "terrainAcres": 3081,
    "nearestAirport": "DEN",
    "website": "https://www.winterparkresort.com"
  },
  {
    "name": "Eldora",
    "slug": "eldora",
    "lat": 39.94,
    "lng": -105.58,
    "elevationSummit": 10800,
    "elevationBase": 9200,
    "region": "front-range",
    "passType": "ikon",
    "totalLifts": 10,
    "totalTrails": 53,
    "terrainAcres": 680,
    "nearestAirport": "DEN",
    "website": "https://www.eldora.com"
  },
  {
    "name": "Steamboat",
    "slug": "steamboat",
    "lat": 40.46,
    "lng": -106.80,
    "elevationSummit": 10568,
    "elevationBase": 6900,
    "region": "steamboat-area",
    "passType": "ikon",
    "totalLifts": 18,
    "totalTrails": 169,
    "terrainAcres": 2965,
    "nearestAirport": "HDN",
    "website": "https://www.steamboat.com"
  },
  {
    "name": "Aspen Mountain",
    "slug": "aspen-mountain",
    "lat": 39.19,
    "lng": -106.82,
    "elevationSummit": 11212,
    "elevationBase": 7945,
    "region": "aspen-area",
    "passType": "ikon",
    "totalLifts": 8,
    "totalTrails": 76,
    "terrainAcres": 675,
    "nearestAirport": "ASE",
    "website": "https://www.aspensnowmass.com"
  },
  {
    "name": "Aspen Highlands",
    "slug": "aspen-highlands",
    "lat": 39.18,
    "lng": -106.86,
    "elevationSummit": 11675,
    "elevationBase": 8040,
    "region": "aspen-area",
    "passType": "ikon",
    "totalLifts": 5,
    "totalTrails": 131,
    "terrainAcres": 1028,
    "nearestAirport": "ASE",
    "website": "https://www.aspensnowmass.com"
  },
  {
    "name": "Snowmass",
    "slug": "snowmass",
    "lat": 39.21,
    "lng": -106.95,
    "elevationSummit": 12510,
    "elevationBase": 8104,
    "region": "aspen-area",
    "passType": "ikon",
    "totalLifts": 21,
    "totalTrails": 98,
    "terrainAcres": 3362,
    "nearestAirport": "ASE",
    "website": "https://www.aspensnowmass.com"
  },
  {
    "name": "Telluride",
    "slug": "telluride",
    "lat": 37.94,
    "lng": -107.85,
    "elevationSummit": 13150,
    "elevationBase": 8725,
    "region": "san-juans",
    "passType": "epic",
    "totalLifts": 18,
    "totalTrails": 148,
    "terrainAcres": 2000,
    "nearestAirport": "MTJ",
    "website": "https://www.tellurideskiresort.com"
  },
  {
    "name": "Purgatory",
    "slug": "purgatory",
    "lat": 37.63,
    "lng": -107.81,
    "elevationSummit": 10822,
    "elevationBase": 8793,
    "region": "san-juans",
    "passType": "ikon",
    "totalLifts": 12,
    "totalTrails": 105,
    "terrainAcres": 1635,
    "nearestAirport": "DRO",
    "website": "https://www.purgatoryresort.com"
  },
  {
    "name": "Wolf Creek",
    "slug": "wolf-creek",
    "lat": 37.47,
    "lng": -106.79,
    "elevationSummit": 11904,
    "elevationBase": 10300,
    "region": "san-juans",
    "passType": "independent",
    "totalLifts": 7,
    "totalTrails": 77,
    "terrainAcres": 1600,
    "nearestAirport": "ALS",
    "website": "https://wolfcreekski.com"
  },
  {
    "name": "Crested Butte",
    "slug": "crested-butte",
    "lat": 38.90,
    "lng": -106.97,
    "elevationSummit": 12162,
    "elevationBase": 9375,
    "region": "i70-corridor",
    "passType": "epic",
    "totalLifts": 15,
    "totalTrails": 121,
    "terrainAcres": 1547,
    "nearestAirport": "GUC",
    "website": "https://www.skicb.com"
  },
  {
    "name": "Monarch Mountain",
    "slug": "monarch-mountain",
    "lat": 38.51,
    "lng": -106.33,
    "elevationSummit": 11952,
    "elevationBase": 10790,
    "region": "san-juans",
    "passType": "independent",
    "totalLifts": 7,
    "totalTrails": 66,
    "terrainAcres": 800,
    "nearestAirport": "GUC",
    "website": "https://skimonarch.com"
  },
  {
    "name": "Ski Cooper",
    "slug": "ski-cooper",
    "lat": 39.36,
    "lng": -106.30,
    "elevationSummit": 11700,
    "elevationBase": 10500,
    "region": "i70-corridor",
    "passType": "independent",
    "totalLifts": 4,
    "totalTrails": 26,
    "terrainAcres": 400,
    "nearestAirport": "EGE",
    "website": "https://skicooper.com"
  },
  {
    "name": "Silverton Mountain",
    "slug": "silverton-mountain",
    "lat": 37.88,
    "lng": -107.67,
    "elevationSummit": 13487,
    "elevationBase": 10400,
    "region": "san-juans",
    "passType": "independent",
    "totalLifts": 1,
    "totalTrails": 69,
    "terrainAcres": 1819,
    "nearestAirport": "DRO",
    "website": "https://silvertonmountain.com"
  },
  {
    "name": "Alta",
    "slug": "alta",
    "lat": 40.59,
    "lng": -111.64,
    "elevationSummit": 10550,
    "elevationBase": 8530,
    "region": "salt-lake-cottonwoods",
    "passType": "ikon",
    "totalLifts": 11,
    "totalTrails": 116,
    "terrainAcres": 2614,
    "nearestAirport": "SLC",
    "website": "https://www.alta.com"
  },
  {
    "name": "Snowbird",
    "slug": "snowbird",
    "lat": 40.58,
    "lng": -111.66,
    "elevationSummit": 11000,
    "elevationBase": 7760,
    "region": "salt-lake-cottonwoods",
    "passType": "ikon",
    "totalLifts": 13,
    "totalTrails": 169,
    "terrainAcres": 2500,
    "nearestAirport": "SLC",
    "website": "https://www.snowbird.com"
  },
  {
    "name": "Brighton",
    "slug": "brighton",
    "lat": 40.60,
    "lng": -111.58,
    "elevationSummit": 10500,
    "elevationBase": 8755,
    "region": "salt-lake-cottonwoods",
    "passType": "ikon",
    "totalLifts": 7,
    "totalTrails": 66,
    "terrainAcres": 1050,
    "nearestAirport": "SLC",
    "website": "https://www.brightonresort.com"
  },
  {
    "name": "Solitude",
    "slug": "solitude",
    "lat": 40.62,
    "lng": -111.59,
    "elevationSummit": 10488,
    "elevationBase": 7988,
    "region": "salt-lake-cottonwoods",
    "passType": "ikon",
    "totalLifts": 8,
    "totalTrails": 82,
    "terrainAcres": 1200,
    "nearestAirport": "SLC",
    "website": "https://www.solitudemountain.com"
  },
  {
    "name": "Park City Mountain",
    "slug": "park-city",
    "lat": 40.65,
    "lng": -111.51,
    "elevationSummit": 10026,
    "elevationBase": 6800,
    "region": "park-city-area",
    "passType": "epic",
    "totalLifts": 41,
    "totalTrails": 341,
    "terrainAcres": 7300,
    "nearestAirport": "SLC",
    "website": "https://www.parkcitymountain.com"
  },
  {
    "name": "Deer Valley",
    "slug": "deer-valley",
    "lat": 40.64,
    "lng": -111.48,
    "elevationSummit": 9570,
    "elevationBase": 6570,
    "region": "park-city-area",
    "passType": "ikon",
    "totalLifts": 21,
    "totalTrails": 103,
    "terrainAcres": 2026,
    "nearestAirport": "SLC",
    "website": "https://www.deervalley.com"
  },
  {
    "name": "Snowbasin",
    "slug": "snowbasin",
    "lat": 41.22,
    "lng": -111.86,
    "elevationSummit": 9350,
    "elevationBase": 6391,
    "region": "ogden-area",
    "passType": "epic",
    "totalLifts": 12,
    "totalTrails": 107,
    "terrainAcres": 3000,
    "nearestAirport": "SLC",
    "website": "https://www.snowbasin.com"
  },
  {
    "name": "Powder Mountain",
    "slug": "powder-mountain",
    "lat": 41.38,
    "lng": -111.78,
    "elevationSummit": 9422,
    "elevationBase": 6900,
    "region": "ogden-area",
    "passType": "independent",
    "totalLifts": 9,
    "totalTrails": 167,
    "terrainAcres": 8464,
    "nearestAirport": "SLC",
    "website": "https://www.powdermountain.com"
  },
  {
    "name": "Brian Head",
    "slug": "brian-head",
    "lat": 37.70,
    "lng": -112.85,
    "elevationSummit": 11307,
    "elevationBase": 9600,
    "region": "salt-lake-cottonwoods",
    "passType": "independent",
    "totalLifts": 8,
    "totalTrails": 71,
    "terrainAcres": 665,
    "nearestAirport": "SGU",
    "website": "https://www.brianhead.com"
  },
  {
    "name": "Sundance Mountain Resort",
    "slug": "sundance",
    "lat": 40.39,
    "lng": -111.59,
    "elevationSummit": 8250,
    "elevationBase": 6100,
    "region": "park-city-area",
    "passType": "independent",
    "totalLifts": 5,
    "totalTrails": 45,
    "terrainAcres": 450,
    "nearestAirport": "SLC",
    "website": "https://www.sundanceresort.com"
  },
  {
    "name": "Taos Ski Valley",
    "slug": "taos-ski-valley",
    "lat": 36.60,
    "lng": -105.45,
    "elevationSummit": 12481,
    "elevationBase": 9207,
    "region": "taos-area",
    "passType": "ikon",
    "totalLifts": 14,
    "totalTrails": 110,
    "terrainAcres": 1294,
    "nearestAirport": "ABQ",
    "website": "https://www.skitaos.com"
  },
  {
    "name": "Ski Santa Fe",
    "slug": "ski-santa-fe",
    "lat": 35.80,
    "lng": -105.80,
    "elevationSummit": 12075,
    "elevationBase": 10350,
    "region": "taos-area",
    "passType": "ikon",
    "totalLifts": 7,
    "totalTrails": 86,
    "terrainAcres": 660,
    "nearestAirport": "SAF",
    "website": "https://www.skisantafe.com"
  },
  {
    "name": "Angel Fire Resort",
    "slug": "angel-fire",
    "lat": 36.39,
    "lng": -105.28,
    "elevationSummit": 10677,
    "elevationBase": 8600,
    "region": "taos-area",
    "passType": "independent",
    "totalLifts": 7,
    "totalTrails": 81,
    "terrainAcres": 560,
    "nearestAirport": "ABQ",
    "website": "https://www.angelfireresort.com"
  },
  {
    "name": "Ski Apache",
    "slug": "ski-apache",
    "lat": 33.39,
    "lng": -105.79,
    "elevationSummit": 11500,
    "elevationBase": 9600,
    "region": "taos-area",
    "passType": "ikon",
    "totalLifts": 11,
    "totalTrails": 55,
    "terrainAcres": 750,
    "nearestAirport": "ROW",
    "website": "https://www.skiapache.com"
  },
  {
    "name": "Red River Ski Area",
    "slug": "red-river",
    "lat": 36.68,
    "lng": -105.41,
    "elevationSummit": 10350,
    "elevationBase": 8750,
    "region": "taos-area",
    "passType": "independent",
    "totalLifts": 7,
    "totalTrails": 63,
    "terrainAcres": 209,
    "nearestAirport": "ABQ",
    "website": "https://www.redriverskiarea.com"
  },
  {
    "name": "Sandia Peak",
    "slug": "sandia-peak",
    "lat": 35.21,
    "lng": -106.44,
    "elevationSummit": 10378,
    "elevationBase": 8678,
    "region": "taos-area",
    "passType": "independent",
    "totalLifts": 4,
    "totalTrails": 35,
    "terrainAcres": 200,
    "nearestAirport": "ABQ",
    "website": "https://www.sandiapeak.com"
  },
  {
    "name": "Jackson Hole Mountain Resort",
    "slug": "jackson-hole",
    "lat": 43.59,
    "lng": -110.85,
    "elevationSummit": 10450,
    "elevationBase": 6311,
    "region": "jackson-hole-area",
    "passType": "ikon",
    "totalLifts": 13,
    "totalTrails": 133,
    "terrainAcres": 2500,
    "nearestAirport": "JAC",
    "website": "https://www.jacksonhole.com"
  },
  {
    "name": "Grand Targhee Resort",
    "slug": "grand-targhee",
    "lat": 43.79,
    "lng": -110.96,
    "elevationSummit": 10000,
    "elevationBase": 7851,
    "region": "jackson-hole-area",
    "passType": "ikon",
    "totalLifts": 5,
    "totalTrails": 76,
    "terrainAcres": 2602,
    "nearestAirport": "JAC",
    "website": "https://www.grandtarghee.com"
  },
  {
    "name": "Snow King Mountain",
    "slug": "snow-king",
    "lat": 43.48,
    "lng": -110.76,
    "elevationSummit": 7808,
    "elevationBase": 6237,
    "region": "jackson-hole-area",
    "passType": "independent",
    "totalLifts": 5,
    "totalTrails": 32,
    "terrainAcres": 400,
    "nearestAirport": "JAC",
    "website": "https://www.snowkingmountain.com"
  },
  {
    "name": "Big Sky Resort",
    "slug": "big-sky",
    "lat": 45.28,
    "lng": -111.40,
    "elevationSummit": 11166,
    "elevationBase": 6800,
    "region": "big-sky-area",
    "passType": "ikon",
    "totalLifts": 36,
    "totalTrails": 317,
    "terrainAcres": 5800,
    "nearestAirport": "BZN",
    "website": "https://www.bigskyresort.com"
  },
  {
    "name": "Whitefish Mountain Resort",
    "slug": "whitefish-mountain",
    "lat": 48.48,
    "lng": -114.35,
    "elevationSummit": 6817,
    "elevationBase": 4464,
    "region": "big-sky-area",
    "passType": "independent",
    "totalLifts": 14,
    "totalTrails": 109,
    "terrainAcres": 3000,
    "nearestAirport": "FCA",
    "website": "https://www.skiwhitefish.com"
  },
  {
    "name": "Bridger Bowl",
    "slug": "bridger-bowl",
    "lat": 45.82,
    "lng": -110.90,
    "elevationSummit": 8800,
    "elevationBase": 6100,
    "region": "big-sky-area",
    "passType": "independent",
    "totalLifts": 8,
    "totalTrails": 75,
    "terrainAcres": 2000,
    "nearestAirport": "BZN",
    "website": "https://www.bridgerbowl.com"
  },
  {
    "name": "Red Lodge Mountain",
    "slug": "red-lodge-mountain",
    "lat": 45.19,
    "lng": -109.34,
    "elevationSummit": 9416,
    "elevationBase": 7016,
    "region": "big-sky-area",
    "passType": "independent",
    "totalLifts": 6,
    "totalTrails": 70,
    "terrainAcres": 1600,
    "nearestAirport": "BIL",
    "website": "https://www.redlodgemountain.com"
  },
  {
    "name": "Montana Snowbowl",
    "slug": "montana-snowbowl",
    "lat": 47.02,
    "lng": -114.17,
    "elevationSummit": 7600,
    "elevationBase": 5000,
    "region": "big-sky-area",
    "passType": "independent",
    "totalLifts": 4,
    "totalTrails": 39,
    "terrainAcres": 950,
    "nearestAirport": "MSO",
    "website": "https://www.montanasnowbowl.com"
  },
  {
    "name": "Lost Trail Powder Mountain",
    "slug": "lost-trail",
    "lat": 45.69,
    "lng": -113.95,
    "elevationSummit": 8200,
    "elevationBase": 6400,
    "region": "big-sky-area",
    "passType": "independent",
    "totalLifts": 5,
    "totalTrails": 55,
    "terrainAcres": 1800,
    "nearestAirport": "MSO",
    "website": "https://www.losttrail.com"
  },
  {
    "name": "Discovery Ski Area",
    "slug": "discovery",
    "lat": 46.25,
    "lng": -113.24,
    "elevationSummit": 8158,
    "elevationBase": 5960,
    "region": "big-sky-area",
    "passType": "independent",
    "totalLifts": 7,
    "totalTrails": 67,
    "terrainAcres": 2200,
    "nearestAirport": "BTM",
    "website": "https://www.skidiscovery.com"
  }
]
